clinic_id,name,address,district,city,lat,lng,phone,email,opening_hours,description,image
CL01,Phòng khám Đa khoa An Khang,12 Phố Huế,Hai Bà Trưng,Hà Nội,21.0167,105.8520,024-3826-1111,lienhe@ankhang-clinic.vn,T2-CN: 7:00 - 20:00,Phòng khám đa khoa hiện đại với đầy đủ chuyên khoa Nội - Ngoại - Sản - Nhi - Tai Mũi Họng. Trang thiết bị xét nghiệm và chẩn đoán hình ảnh đạt chuẩn.,https://picsum.photos/seed/clinic1/640/420
CL02,Phòng khám Đa khoa Hồng Phúc,45 Nguyễn Trãi,Thanh Xuân,Hà Nội,20.9930,105.8010,024-3553-2222,lienhe@hongphuc-clinic.vn,"T2-T7: 7:30 - 19:30, CN: 7:30 - 12:00","Chuyên sâu về Tim mạch và Nội tiết, đội ngũ bác sĩ từng công tác tại các bệnh viện tuyến trung ương.",https://picsum.photos/seed/clinic2/640/420
CL03,Phòng khám Đa khoa Việt Đức Mới,78 Giải Phóng,Hoàng Mai,Hà Nội,20.9890,105.8410,024-3868-3333,lienhe@vietducmoi-clinic.vn,T2-CN: 6:30 - 21:00,"Mạnh về Ngoại khoa - Chấn thương chỉnh hình, có phòng tiểu phẫu và phục hồi chức năng.",https://picsum.photos/seed/clinic3/640/420
CL04,Phòng khám Sản Nhi Hoa Sen,23 Trần Duy Hưng,Cầu Giấy,Hà Nội,21.0070,105.7950,024-3795-4444,lienhe@hoasen-clinic.vn,T2-CN: 7:00 - 20:30,"Chuyên khoa Sản Phụ khoa và Nhi khoa, phòng khám thân thiện với trẻ em, có khu vui chơi cho bé.",https://picsum.photos/seed/clinic4/640/420
CL05,Phòng khám Đa khoa Tâm An,156 Xã Đàn,Đống Đa,Hà Nội,21.0095,105.8290,024-3573-5555,lienhe@taman-clinic.vn,"T2-T6: 8:00 - 17:30, T7: 8:00 - 12:00","Chuyên khoa Da liễu - Mắt - Tai Mũi Họng, công nghệ laser thẩm mỹ da hiện đại.",https://picsum.photos/seed/clinic5/640/420
CL06,Phòng khám Đa khoa Sài Gòn Health,89 Nguyễn Văn Trỗi,Phú Nhuận,TP. Hồ Chí Minh,10.7980,106.6790,028-3845-6666,lienhe@saigonhealth-clinic.vn,T2-CN: 6:30 - 20:00,"Phòng khám quy mô lớn phía Nam, đầy đủ chuyên khoa, xét nghiệm trả kết quả trong ngày.",https://picsum.photos/seed/clinic6/640/420
